region,district_261,shap_illiteracy_rate,shap_uninsured_rate,shap_unemployment_rate,shap_female_15_64_share,shap_lat,shap_lon
Ahafo,Asunafo North Municipal,-1.3483807890069661,-3.7196549439058466,-0.6173352671703656,1.5594111632803445,-0.043494573380370834,-0.3174700831555266
Ahafo,Asunafo South,-0.4991179899996797,1.807056000361504,-1.1992970635604143,0.9341293433629891,-0.5022629956784774,-0.5197776748080325
Ahafo,Asutifi North,-1.7961086020570092,-2.872288520266536,-0.5132417825498946,1.578189062776247,-0.034710752100935716,-0.21179660116080418
Ahafo,Asutifi South,-0.5113495398150655,-1.7692800655898433,-0.5128106583571288,0.9400107148112208,-0.376076747929182,-0.39259750511301894
Ahafo,Tano North Municipal,-3.441302263369365,-2.7710711655760334,-0.5887746347282037,0.8298101131456855,-0.2369681415010774,-0.48770904302096163
Ahafo,Tano South Municipal,-0.7002953527900659,-2.8441039121156706,-0.6449740420801249,0.7210874353921818,-0.3590618223963159,-0.40535230578674125
Ashanti,Adansi Asokwa,0.8774323123511648,2.5173519171068044,-0.2762755410975285,1.375721299906518,-0.29026418299589707,0.07282795443346106
Ashanti,Adansi North,-5.233653892715971,-0.2994448677872309,-0.3460778555477585,-0.542213004791261,-0.38228657171283154,-0.6588997192725861
Ashanti,Adansi South,0.79319464932044,2.6788970847913003,-0.544701977891151,1.4699901929538806,-0.0753476853981917,0.0811358616088788
Ashanti,Afigya Kwabre North,-1.6659130413084136,0.12825798880406394,-0.3769116522419309,1.085794139645328,-0.35158494971665644,-0.4980517881559286
Ashanti,Afigya Kwabre South,-10.797274267459695,-0.6975119372006812,-0.47566786172704384,1.00327410966926,-0.5458798683576276,-0.6074597796331028
Ashanti,Ahafo Ano North Municipal,-1.3816236326805864,0.4447351100279909,-0.9826197832497258,1.0918615393022575,-0.36661148645101815,-0.49378342680482956
Ashanti,Ahafo Ano South East,4.905307076438133,0.3141222013383308,-1.212028303105288,1.1416919447989686,-0.8417502360402223,-0.4240745721509846
Ashanti,Ahafo Ano South West,4.42196864228111,0.9000427139503382,-1.0876657395243794,1.0254158135923455,-0.7260000400144274,-0.32823192739470464
Ashanti,Akrofuom,1.5144751063355117,2.4766057645957624,-0.2936259324801958,1.75442929960747,-0.16422827808192098,-0.0682953687240212
Ashanti,Amansie Central,0.2987961517922711,1.3385457743455458,-0.8401726121264849,1.098135105250752,-0.4573950379131326,-0.2517656616507108
Ashanti,Amansie South,0.9790600684014181,2.177605467104684,-0.6278618832430702,0.9390222782449869,-0.4304966704416544,-0.3573369900758291
Ashanti,Amansie West,0.427473083270983,2.283026442755155,-0.1264846947741316,1.1975806616526836,-0.36967038666130053,-0.18013651243776413
Ashanti,Asante Akim Central Municipal,-7.336222218475575,-1.182736870249786,-0.3960379919584135,-1.2147505691972718,-0.34446799276637124,-0.15295202140949765
Ashanti,Asante Akim North Municipal,-1.4099332649674616,1.3660075977097128,-0.6739596769449119,-0.6572787291180809,-0.30830952251943466,-0.08917147876911789
Ashanti,Asante Akim South Municipal,-1.2727803758576266,0.999548882791758,-1.0520661034102223,0.983298692778862,-0.45542179541419714,-0.291965208276216
Ashanti,Asokore Mampong Municipal,-5.1045321358360205,-2.223906958968755,-0.9240031854623699,-2.5459546225623577,-0.3063149054380897,-0.7368401649985679
Ashanti,Asokwa Municipal,-13.16597555660193,-1.3475989682556042,-1.0810544186768911,-2.43647091942085,-0.509873181409086,-0.44755775794315406
Ashanti,Atwima Kwanwoma,-10.478381432114704,-0.6457236658970058,-0.5271658262357793,-0.18117765465379781,-0.4737517870541958,-0.6503203149919663
Ashanti,Atwima Mponua,-0.7021716105124224,-1.0071932304020828,-1.1703141230744305,1.1760403043179675,-0.3986035266362786,-0.47076589566507065
Ashanti,Atwima Nwabiagya North,-9.5914992019305,-0.9871953795506017,-0.5040577603561609,0.917208981703635,-0.5298018144709575,-0.7390643711817315
Ashanti,Atwima Nwabiagya South Municipal,-10.443391053649144,-0.5302218237244826,-0.5785691718728058,-1.8535688701881823,-0.5100292996614164,-0.6577460895569661
Ashanti,Bekwai Municipal,-5.2481275786353105,-0.3129516303643277,-0.4237549687258956,-0.6031214574305009,-0.3773681786450468,-0.6705492462487118
Ashanti,Bosome Freho,0.15975008495567156,2.353555155221549,-0.986060695985757,1.2261171421606158,-0.3794532304578588,-0.0397803934553967
Ashanti,Bosomtwi,-10.042831237283874,-0.4743626087148563,-0.49038662206469247,0.27129943796306705,-0.310665934466606,0.2128832345389554
Ashanti,Ejisu Municipal,-9.56352845932026,-0.7244676480921779,-0.6097470877110399,-1.4443653644487786,-0.4749067904036799,-0.678861515065198
Ashanti,Ejura Sekyedumase Municipal,5.1086577728472555,-0.259548830654144,-1.8009367997045336,0.25366642767645575,-1.2123949871092174,-0.4574155613169811
Ashanti,Juaben Municipal,-4.239919499394673,0.16886543795668713,-0.8279239075323397,0.6462836845558746,-0.4261713799920435,-0.3198905656595275
Ashanti,"Kumasi Metropolitan Area (KMA)-Bantama, Manhyia North, Manhyia South, Nhyiaeso, & Subin",-13.551488451668586,-0.6679303038566351,-0.42070190098197485,-2.17477640162181,-0.5371858773190452,-0.5501891404006958
Ashanti,Kwabre East,-12.830842245410501,-0.6218210078080016,-0.367896090634331,-1.0222917548825132,-0.5014697320001077,-0.385189310288894
Ashanti,Kwadaso Municipal,-13.738221614536856,-0.7511272485537916,-0.22477126798788122,-2.174154531729038,-0.5018413295012611,-0.4954276425365178
Ashanti,Mampong Municipal,-4.007708972364032,0.2794886782440095,-0.04637476063545336,-0.5705604370104732,-0.1725256740183813,-0.44617275738380396
Ashanti,Obuasi East,-8.876879973502652,-1.1888048937227012,-0.3910133899630316,-1.889165066880038,-0.33478831554705063,-0.7657970748725206
Ashanti,Obuasi Municipal,-12.397949268220586,-1.2234643132752092,-0.17326442364256134,-2.1405411566545753,-0.4200759285077243,-0.45000947111812173
Ashanti,Offinso Municipal,-1.577191495799868,0.6371908802034884,-0.4611067869555494,0.4252116887533321,-0.4118105208680922,-0.4658768981806788
Ashanti,Offinso North,6.518627708272069,0.04845672818194182,-1.5658963518245272,-0.19405242048097637,-1.0028146988581952,-0.38427403375763347
Ashanti,Oforikrom Municipal,-14.251327892146536,-0.5328596017189926,0.3189355338952155,-2.172113339028789,-0.5100152894562296,-0.42889196839390015
Ashanti,Old Tafo Municipal,-13.653598768217778,-0.44996832348455357,-0.3980002847668947,-2.138509474578916,-0.5056697612595243,-0.488311430352038
Ashanti,Sekyere Afram Plains,16.528196183762848,2.3065306935959518,-1.3434223205703653,3.1944375094616517,-1.0758284900293538,0.3869281531067884
Ashanti,Sekyere Central,6.792662247460029,3.720395064081387,-0.9572636707575114,0.9022950828384864,-0.4499126210066842,-0.1812164865453222
Ashanti,Sekyere East,-8.139801381990647,-0.45437276415347544,-0.4673610898099088,-1.2164548291856672,-0.3863215216378353,-0.17357537511123514
Ashanti,Sekyere Kumawu,-4.30598320293586,0.760653128717536,-0.3350171908094127,0.8690924889392034,-0.19227603088512246,-0.4357303534016935
Ashanti,Sekyere South,-4.928988029608839,-0.1897466438688414,-0.18910282084557323,-0.3190311937514202,-0.11999729509303515,-0.5358731663481596
Ashanti,Suame Municipal,-14.390904099073996,-0.5181345190215275,-1.3356483238497847,-2.2761010995353033,-0.5309692799167741,-0.3939187069803692
Bono,Banda,8.799921777618634,-1.0881580966669855,-1.001473076881195,1.6123405261719435,-0.6414279187915682,-0.8289561869556064
Bono,Berekum East Municipal,-8.763727734913802,-1.4345121537682861,-0.35933313638145536,-2.2735429697336813,-0.6499579067035174,-0.777948025885422
Bono,Berekum West,-4.317079471096399,-3.5244321347612226,-0.5548437711658232,-2.241892802303454,-0.9624779401730288,-0.8892860805765169
Bono,Dormaa Central Municipal,-4.387712115880141,-3.2104843981973294,-0.8774417447975322,-1.055175257306956,-0.7194350811690301,-0.9535310754760115
Bono,Dormaa East,-2.9678885792158543,-3.4539081172112738,-0.5639061492129862,0.318087144038252,-0.7649812717393378,-0.48996943410195043
Bono,Dormaa West,-0.18113919398941922,-2.553086923464449,-1.0239591142102769,1.5619515212348756,-0.36475576091541756,-0.791034823118823
Bono,Jaman North,-2.4423302844060513,-4.828977516234128,-0.45447001903605416,0.6305341699628813,-1.3218755759153897,-0.5639534597956888
Bono,Jaman South,-2.725651520639582,-5.111482292030754,-0.6600881897607562,-0.9861048240562619,-1.2260349096142173,-0.8996014902633992
Bono,Sunyani Municipal,-9.090175331779202,-1.3474754524652715,-0.37662578365818444,-2.2943369019676108,-0.6324742860879283,-0.7201772431710385
Bono,Sunyani West Municipal,-4.700043259398842,-2.7944864652687764,0.18534018993927784,-2.1189150855546552,-0.7160147845043603,-0.6993181565019468
Bono,Tain,4.917482584283578,-3.380580799536457,-2.0251732899506805,-0.2543457796448201,-1.4081200370000608,-0.718267010170114
Bono,Wenchi Municipal,3.8818552405672118,-3.354859055401613,-1.671189735903901,-0.4510968057440774,-1.24541830692119,-0.7240096231789419
Bono East,Atebubu Amantin Municipal,7.68919335676748,-1.3637420407290113,-1.9359589364208298,0.1251556699312886,-1.3326136319290023,-0.39005401631623965
Bono East,Kintampo North Municipal,6.566543189183382,-2.0793212204775573,-1.646307491098755,-0.19116553733697567,-1.275367602336692,-0.6780555153842965
Bono East,Kintampo South,7.162386413408915,-3.0050152168204005,-1.989374960864525,0.6754160536688324,-1.395767446723528,-0.8375571514333355
Bono East,Nkoranza North,5.260083160326228,-3.373607558211291,-1.750248365408662,0.684103715051034,-1.2742132249326845,-0.6159511755597562
Bono East,Nkoranza South Municipal,-1.5327414502566505,-4.450040444144274,-0.8239220687654021,0.5994980400654322,-1.0706092368003326,-0.43026075007642856
Bono East,Pru East,8.029567144785307,-1.0754207000513116,-1.9411789261495114,0.16456635197016847,-1.2887126346299738,-0.3748102984904816
Bono East,Pru West,10.92033476417088,1.7140962713900967,-2.0408012688571184,0.32514543399490353,-1.0080281131970825,-0.6183521012460474
Bono East,Sene East,15.298718639132545,1.5855241056030955,-1.383434642489884,3.2725565926887494,-1.014700122710996,0.8328624879767931
Bono East,Sene West,11.20386884279626,-2.198312207506732,-2.4005479064635282,-0.06173581770933887,-1.8412587525661608,0.09616088792286565
Bono East,Techiman Municipal,-4.159446872062352,-3.768228716886061,-1.1232135098953178,-2.202731272259346,-0.9817234618358145,-0.7670387425953893
Bono East,Techiman North,-2.6316133204539085,-4.919887456510016,-0.7923072291914257,-0.5671173480217487,-1.236448606990749,-0.5922713890917546
Central,Abura Asebu Kwamankese,0.6175936523315134,1.5208715243750335,-0.4296136972994777,0.5849393165349909,-0.2975521226211585,-0.3616989833891831
Central,Agona East,-3.893658419399772,1.8241611131890598,-0.3156111035506894,-0.4667071795677857,-0.32853478457350427,-0.10377552399550655
Central,Agona West Municipal,-4.997769342907955,0.8629415474789467,-0.6865838088159922,-2.110194951528336,-0.38260162007232834,-0.5935045944938215
Central,Ajumako Enyan Essiam,-1.66822262654813,1.7916804423704031,-0.3505820287809376,0.4620220107918248,-0.29766512550211804,-0.12850263779023766
Central,Asikuma Odoben Brakwa,-1.0092977537178491,1.4662392809282057,-0.6080962255338163,0.7548830301440115,-0.28543241361607286,-0.1849578898056796
Central,Assin Central Municipal,-10.043937485001173,0.29716309635459875,-0.6734320932394996,0.4880791455057166,-0.3300006594746088,-0.20091652421636802
Central,Assin North,0.3392848978629322,2.3648191348488816,-0.9622480433029585,1.167023647133342,-0.19426692626247555,0.031776353657608995
Central,Assin South,-0.582318220341262,1.3148645892505633,-0.6522399615598817,1.0473147519365635,-0.300787185509753,-0.32416994128892035
Central,Awutu Senya West,-2.5808710389520173,1.781902050174788,-0.7135074252369985,0.34759272370170613,-0.35175629568455863,-0.18792997483710308
Central,Awutu Senya East Municipal,-14.803081405143399,0.8315652913235226,-0.25928338343538104,-2.2389298326767446,-0.294255243909384,-0.03528261985258231
Central,Cape Cape Metropolitan Area (CCMA)-Cape Coast South & Cape Coast North,-13.350908220008767,-0.27175326299923297,-0.13491975000418732,-2.0740805781715492,-0.27113913074318113,-0.181632810208574
Central,Effutu Municipal,-5.915639281206153,0.23919915381833762,1.0064780663653496,-1.9304816835457341,-0.43306724416662973,-0.2067297152451119
Central,Ekumfi,5.745379102162387,3.3094125574009645,-0.9658093844045862,-0.03940683452451134,-0.4519871746379064,-0.24291364271094484
Central,Gomoa Central,-5.48724666007935,1.29320272431654,-0.8356458720552548,-1.3981376167859803,-0.43308802779389377,-0.2578216999865098
Central,Gomoa East,-11.428585636228105,0.8223127499243186,-0.5324929020364949,-0.10140668027954339,-0.33181035440779155,-0.11466686779879429
Central,Gomoa West,1.0475756365980773,2.2706001955022717,-0.5789614612943578,-0.811231463146958,-0.33496509985566286,-0.21687481862460947
Central,Komenda Edina Eguafo Abirem Municipal,-0.7930642535678654,1.9837395670421016,-0.4721768979466797,0.5657655562030783,-0.2722095944124064,-0.21158929079236366
Central,Mfantsiman Municipal,-2.973763070734495,1.3400687531028121,-0.29944343564641235,-2.1365569416198693,-0.2711764454757216,-0.10403098598013431
Central,Twifo Ati Morkwa,1.1282435649145182,2.633905282224942,-0.22510680877196584,1.3908428382056999,-0.12781334995841137,0.11255947200824153
Central,Twifo Heman Lower Denkyira,-0.2610878248477962,2.520731774615517,-0.4111844712117368,1.4761310109308792,-0.21647738848509426,-0.017300624366021512
Central,Upper Denkyira East Municipal,-3.7328196092795256,-0.11275869456058708,-0.3253632877149183,0.7254916809362926,-0.20604585341342094,-0.6377213417866688
Central,Upper Denkyira West,-0.37995194782791886,1.9574475959727462,-1.2162467575554814,1.1248138927024696,-0.42431198029607425,-0.5357017929859574
Eastern,Abuakwa North Municipal,-8.968420160128083,-0.974858829446556,-0.18105366520790825,-1.5374745680788904,-0.31230302749265637,0.03276040505244445
Eastern,Abuakwa South Municipal,-4.7989199145013,-0.7517305464707311,-0.36392942542717027,0.25258430408204763,-0.3627283941091823,-0.2840616178484932
Eastern,Achiase,-0.07891522606970694,1.5002356537622237,-0.25109523179582355,0.6274002953450771,-0.2265251855680704,-0.24227586183846617
Eastern,Akwapim North Municipal,-9.024845576395904,-0.5473365286662346,0.36031032365920346,-1.6748227798702748,-0.31198490528489387,1.0335269179412678
Eastern,Akwapim South Municipal,-10.109517825522245,0.17822066571550332,-0.05873715435659279,-1.8963099482535684,0.027121661728516096,1.6821959118600234
Eastern,Akyemansa,-0.3457505281740568,-0.8757426160224241,-1.2647497076004481,0.7271260163780219,-0.30014257886330103,-0.396774268015698
Eastern,Asene Manso Akroso,-1.5969841167736085,0.3113961957177188,-0.6383946324059792,0.576990106925822,-0.28512470735500806,-0.23323411267444336
Eastern,Asuogyaman,-4.773320770006524,-0.5004228999411502,-0.19902648146378693,-1.7789633557485147,-0.34213693956419405,0.5197267124412113
Eastern,Atiwa East,-5.057628049149783,-2.2029692455940473,-0.8441138967233645,1.1571781711442952,-0.33172079744152777,-0.39464973124087954
Eastern,Atiwa West,-4.9765671354894545,-0.13470355962822655,-1.158716660939485,1.0776803304800422,-0.5444198714104604,-0.545821688000226
Eastern,Ayensuano,-0.2850201540750923,2.215339010733358,-0.9937540091429629,1.0092878081721528,-0.22833002593539392,-0.08721834978076214
Eastern,Birim Central Municipal,-11.739155885544186,-1.2023289117367197,-0.02109833788338809,-2.1700432773712994,-0.3230932718735222,-0.13522770408994603
Eastern,Birim North,-4.448801005185811,-2.5528201251300655,-0.8687351302141837,0.8304694466724519,-0.28444595999933636,-0.44539864860927025
Eastern,Birim South,-4.205566992057076,0.24017416329114444,-0.3115961170598179,0.19145239671497644,-0.26718941083911324,-0.3190421129573815
Eastern,Denkyembuor,-4.743020245279173,-2.3220281548299804,0.04973936016284994,-1.889155233271841,-0.26464790821156686,-0.10591141882058148
Eastern,Fanteakwa North,0.43124710177358716,1.196946439783642,-1.0839911287866213,0.9058231215327512,-0.4268109535968321,0.027981901044483233
Eastern,Fanteakwa South,-5.391124695379416,-0.4935365543136307,-0.8367196861540789,0.7211749350979444,-0.3865500194374295,-0.369405383464023
Eastern,Kwaebibirem Municipal,-4.723243426759121,-2.0562430093682313,-0.9053104847639803,0.6186850228541807,-0.3340411814204576,-0.45515280055000157
Eastern,Kwahu Afram Plains North,11.283656483144576,2.598795268582729,-1.2133802411754233,2.763758282021224,-0.5844585543016343,1.2118309222913797
Eastern,Kwahu Afram Plains South,9.785842132592313,2.155393438817441,-1.2960290482166594,2.612263377914453,-0.6127436837904738,0.309688521408344
Eastern,Kwahu East,-1.3284923685363108,1.1189683430248858,-0.4171879720923996,1.108874879721121,-0.30658429554321015,-0.04984825094548738
Eastern,Kwahu South Municipal,-2.3386656792580567,0.4887745237713124,-0.47057881330585877,0.45169272753778145,-0.1607077205915858,1.6280382236229258
Eastern,Kwahu West Municipal,-8.446605886596444,-1.2037622788685396,-0.702344122749972,1.0459802618770093,-0.3510583322689837,-0.2690425277277817
Eastern,Lower Manya Krobo Municipal,-4.82423976802307,-1.1835996338286308,0.2224837311303819,-2.0010611626660664,-0.36525557099348904,0.3683004187196836
Eastern,New Juaben North Municipal,-13.09595361917249,-1.142286508587549,0.16517563953503026,-2.2953744481431206,-0.3838547922975199,0.025672251754902422
Eastern,New Juaben South Municipal,-13.097528928128554,-1.3769795144251673,-0.36857878990163345,-2.3936183836348444,-0.4108863400032293,-0.0021466883719241004
Eastern,Nsawam Adoagyiri Municipal,-9.950229818883981,-0.22661960655435254,-0.7964795531866904,-1.3406356832861177,-0.3740265136618408,-0.05006004983001774
Eastern,Okere,-4.152276652690944,0.9846248945559545,-0.5976026550505484,-0.5196899725959073,-0.31971314942799905,0.10172786746995868
Eastern,Suhum Municipal,-5.410654269737689,-0.10426093073766188,-1.07899654595794,-1.8084899760168442,-0.43790059162126527,-0.26227634685898227
Eastern,Upper Manya Krobo,6.19331645228538,0.7542390585913803,-1.3572607241218075,-0.16237583567955652,-0.8477568782157032,0.5327039576296329
Eastern,Upper West Akim,0.09652424624411325,2.271069827144294,-0.7611691078221359,1.0822219089865743,-0.2914406127137119,-0.15942572964783894
Eastern,West Akim Municipal,-2.9118342521362046,0.0802483013816057,-0.6341134264117013,-0.23112276672767315,-0.2169161054841615,-0.1735541232490324
Eastern,Yilo Krobo Municipal,-4.62913519995886,0.238385741152787,-0.9421260139234432,-1.195339893656497,-0.39519686534140824,0.07880419790957274
Greater Accra,Ablekuma Central Municipal,-14.912680392758286,0.3038647020372568,-1.4771864226499274,-2.3437856505082877,-0.30407273378200755,0.07711071017216484
Greater Accra,Ablekuma North Municipal,-15.249203167421346,0.3286482177052618,-1.3289955515631522,-2.365297639827801,-0.33015404939204057,0.032537239469858
Greater Accra,Ablekuma West Municipal,-15.380064159412646,0.5457615018271147,-1.3030151212907262,-2.3926700211725653,-0.29593549450782536,0.027450527269622427
Greater Accra,"Accra Metropolitan Area (AMA)-Ablekuma South, Ashiedu Keteke & Okaikoi South",-10.588409597403905,0.38306965193795905,-1.0166087080883741,-2.2873701969442157,-0.41908921894486173,0.01850287532394172
Greater Accra,Ada East,-0.4171939174779903,1.7255058589315024,-0.3470059548272352,0.4637490125796837,-0.2546699330645908,0.5827349453206908
Greater Accra,Ada West,6.689597653223268,3.268463181425601,-0.7933576157616017,0.8517561593593707,-0.40944242658167185,0.9916427037179513
Greater Accra,Adentan Municipal,-15.487414957702697,0.33691579600895744,-1.494233809897288,-2.4537419629185586,-0.4853194159589926,0.26002512223503615
Greater Accra,Ashaiman Municipal,-15.311649393111049,0.2292783766948102,-1.6320989453553223,-2.436404265591016,-0.4888010279625875,0.38621594171401114
Greater Accra,Ayawaso Central Municipal,-15.152024724757108,0.8866242526354036,-0.7983329390616763,-2.2046349160143075,-0.25496606189887855,0.15465057082349867
Greater Accra,Ayawaso East Municipal,-5.917541809019541,0.7367201477306269,-0.21254348989335015,-2.309265390687295,-0.5264343606285219,-0.17169881134238701
Greater Accra,Ayawaso North Municipal,-11.055124487898762,0.27771692814557136,-0.496934034592681,-2.318346048819025,-0.3860686797456966,0.1982748735649307
Greater Accra,Ayawaso West Municipal,-14.928952308239596,0.278029797106637,0.0910158577343112,-2.2614069960979255,-0.4191359466184852,0.18738453871075542
Greater Accra,Ga Central Municipal,-15.41055272682212,0.8598448889559601,-1.2670578086606479,-2.4367209452453147,-0.26689554637426455,-0.36634309658063663
Greater Accra,Ga East Municipal,-14.699468680686438,0.397225180273083,-0.29384626161350813,-2.3295916603213835,-0.42078415688091003,-0.01515606973176829
Greater Accra,Ga North Municipal,-14.601333326599844,0.37549838975027217,-0.2647367522105097,-2.3324993606221383,-0.42161635541226505,-0.010725483645166116
Greater Accra,Ga South Municipal,-11.277224336393111,0.8986951384404078,-0.6109766294997098,-1.509216421439793,-0.3406635215042249,0.005706888853345253
Greater Accra,Ga West Municipal,-14.27887038645098,0.5069049224716288,-0.309914773427858,-0.8640606652439805,-0.3881823863969789,0.007606143454309425
Greater Accra,Korle Klottey Municipal,-14.498337975835826,0.3033630860254242,-0.41859918543882846,-2.184730602613638,-0.29697698932715016,0.17096522505929382
Greater Accra,Kpone Katamanso Municipal,-14.499061350043702,0.30389722452134094,-0.31172391746682765,-1.8738566981865277,-0.4104852831119141,0.437022492690782
Greater Accra,Krowor Municipal,-14.926058021713573,0.8865580290521653,-0.16483281941630445,-2.168164687266998,-0.28953190335599527,0.5188126016696888
Greater Accra,La Dade-Kotopon Municipal,-15.322599636445485,0.34636826698406825,-1.416519703809496,-2.3326912467015988,-0.3291731745767396,0.26569331047528943
Greater Accra,La Nkwantanang Madina Municipal,-14.502900408204674,0.30454112654437526,-0.20868849211323204,-2.232298732587006,-0.4140972247713997,0.3591803313293008
Greater Accra,Ledzokuku Municipal,-14.457530625060352,0.40219469276064335,-0.22471395616407094,-2.177255371416082,-0.3201053514954026,0.48498662956199906
Greater Accra,Ningo-Prampram,-8.288694163991085,0.8424893257027907,-0.6891763926898882,0.24132375154441993,-0.44831142008352387,0.34160026282185507
Greater Accra,Okaikoi North Municipal,-14.514993846381884,0.3286626275764292,-0.27187285858176424,-2.2184065668961988,-0.3229857956994912,0.0756630485977608
Greater Accra,Shai-Osudoku,-3.571984847488011,0.14011883190446522,-0.30350247182811796,0.6322899971651667,-0.28143740838543224,0.5847777610670709
Greater Accra,Tema Metropolitan Area (TMA)-Tema Central & Tema East,-14.798826385217183,0.9189612993757215,-0.29774516316027505,-2.1360979427769324,-0.3739656079111567,0.5261453926721392
Greater Accra,Tema West Municipal,-15.658746645795896,0.5168116583088923,-1.4829763850593647,-2.3970899146547384,-0.46548837964893675,0.33961105540714476
Greater Accra,Weija Gbawe Municipal,-15.549582844303417,0.6073166729967143,-1.319306354970426,-2.4606161365429284,-0.28883492276309813,0.025478046623351767
North East,Bunkpurugu Nakpanduri,9.6758976160396,-2.5168308200993463,2.8642847748932714,0.22813871465073832,0.6697238849761182,0.35228398901099406
North East,Chereponi,20.0001875390385,0.3769430688598123,0.14148141083013901,3.102778129965987,1.140377799000402,0.9305808398522996
North East,East Mamprusi Municipal,19.64011007197741,-1.7049974553965728,4.991852922919948,0.9943165487946223,1.2778397644660628,0.3751420395880984
North East,Mamprugu Moagduri,19.029575469632732,1.8658574331429747,-2.3173093104561953,2.034829428133269,0.7153439626007717,-0.46689760026839633
North East,West Mamprusi Municipal,14.629346144938893,-2.0244594894772154,3.5364186523052243,0.4987061846490006,1.0853875649942522,-0.05236778938066433
North East,Yunyoo Nasuan,21.07387183905614,0.43042335281517535,1.1151511694831382,2.676613717531373,1.2065681533955852,0.5591008943709528
Northern,Gushegu Municipal,19.946824353735618,1.5816183872233829,-1.5349200517092834,2.9289144188805776,0.8125700022461146,0.47824572358727085
Northern,Karaga,19.71596484467929,1.2545047308719954,-1.1983983497296387,1.9929369330124664,0.8181802477134842,0.3865664115430646
Northern,Kpandai,16.41056703694602,2.0341480864275012,-1.6276321619790004,2.150068666100303,0.478987447386195,0.9014326563889747
Northern,Kumbungu,15.60765657124479,0.33740213626877624,0.8427567905536635,1.5383909145168384,0.9756195727053226,-0.3626400954927381
Northern,Mion,19.962809359891324,1.1912051765162048,-1.7194656133014763,2.9720611471610976,0.9572123488739406,0.42990979978949334
Northern,Nanton,15.08391722512942,0.3138642443186092,-1.9174033152414551,1.7559696774678768,0.7219756106221832,-0.3581516990016968
Northern,Nanumba North Municipal,15.776648352343363,1.0664141223968053,-1.9752204218151566,1.756669091682002,0.49504300057462286,0.5729777291859813
Northern,Nanumba South,16.8241981565042,1.0037617419632523,-1.7709806155016978,2.9787823660443533,0.5814267199323142,0.86697491660661
Northern,Saboba,12.175025974030273,-0.981306796498079,-1.32811275353129,1.7117544357692522,1.0478903362301748,1.6548298546539797
Northern,Sagnarigu Municipal,-2.7238346492130554,-4.004050358679668,0.10497393408391749,0.7919928823400415,-0.31109921089765,-0.2874792502944707
Northern,Savelugu Municipal,13.650687494316262,0.6259714138651662,1.9202551634954899,0.3523518149472793,1.0364904270732267,-0.22624734697769625
Northern,Tamale Metropolitan Area (TMA)-Tamale Central & Tamale South,3.587407810747424,-1.6945098020028497,-1.7326968110835832,-0.8762331450546261,0.12949414710972648,-0.4120319427125364
Northern,Tatale Sanguli,17.096707895424515,1.894680659091311,-1.5431773235548925,3.079065336300573,0.7279115414883747,1.2194063275927745
Northern,Tolon,20.329237708697978,1.879090909099056,2.118076639076317,1.6221280978299673,1.0813605012672092,-0.17827483495322718
Northern,Yendi Municipal,11.964142555375076,-0.6405652657843031,-0.9789684666757301,0.5526073936936573,0.8525917706818803,1.1594658252314907
Northern,Zabzugu,15.851582207284206,0.25386298558385284,-1.8149018213459176,1.879673002612483,0.7456577434238196,1.1074235007874396
Oti,Biakoye,4.463370332283617,1.3593657729990465,-1.1326985980130482,0.8931411301575534,-0.7225923836999704,0.9450712755411614
Oti,Guan,-4.266336611980189,0.10601955123072673,-0.5888547606502458,1.6923593675539317,-0.10836811037542037,2.5837422966937273
Oti,Jasikan Municipal,-1.561703734646639,1.2820235304783474,-0.8128950942697326,1.1255190943306421,-0.49262761252566617,1.1001938512663474
Oti,Kadjebi,-0.6172884866833543,0.14617278878300707,-1.0398036719589854,1.1752465537441905,-0.6783109566919004,1.3238976036441414
Oti,Krachi East Municipal,10.286040101920996,2.5336503282290304,-1.3947590109284,1.225625778334589,-0.6524161227259702,1.5354071054536262
Oti,Krachi Nchumuru,14.209371234918049,2.319584857671207,-1.5367696337680337,2.553533214503621,0.050416846189629036,1.0372282973735658
Oti,Krachi West Municipal,8.570342807555939,-1.1639347006822551,-1.717952494636411,0.14519885892763984,-1.1390970393179345,1.1822586028048567
Oti,Nkwanta North (Kpassa),16.88361906515401,2.1967426942630843,-1.6660960656234727,2.202877503458333,0.5924710592960156,1.2396128577649252
Oti,Nkwanta South Municipal,10.836861610578376,2.530005003202639,-1.7417247735606236,0.7135179052882358,0.25580825085428577,1.5293933795216383
Savannah,Bole,12.516375173223889,-1.55563785748224,-1.020049352174921,0.017733448663387746,0.724097766632127,-0.9080592025040751
Savannah,Central Gonja,22.125237451937025,1.8350998964710026,3.853826440110996,1.7332226793618204,1.3193892344831504,-0.04453994854251168
Savannah,East Gonja Municipal,14.188169706360117,-0.35071125106332585,-1.9677156298412353,0.4527021247493611,0.30759613931004554,-0.36285926370989235
Savannah,North East Gonja,21.394717592927076,1.80296895129391,0.11165828121041421,3.078568479059211,1.1732859413124332,0.4692093213163516
Savannah,North Gonja,21.850719832725936,1.7784606668257175,0.9536799731555133,2.852146129821756,1.2334264015780423,0.4342674942293028
Savannah,Sawla Tuna Kalba,20.18057529200686,1.4372640237975132,1.8260161253205276,-0.17371001063065478,1.3117411849612561,-0.42934310781377083
Savannah,West Gonja,11.291123059684523,-2.8126675052367336,6.818590788085237,0.5584600143853308,0.8496648760321025,-0.3804592387027795
Upper East,Bawku Municipal,8.071914724761886,-3.1323917278968376,-1.5552720000020765,-1.0814925674057474,0.41391320867813847,0.19437119934324468
Upper East,Bawku West,16.98189612605694,-2.001880531225863,0.5060783921028088,0.21747146783028468,0.9502998334195181,0.3914773296070812
Upper East,Binduri,19.29884556130901,-1.967316174822599,5.469722648568456,0.580013813121849,1.2120805924928235,0.36143345095857404
Upper East,Bolgatanga East,3.5556354794699523,-3.3444552350882426,-0.12349554532795748,-0.5065301554013121,0.15580860977511704,-0.3062992666278672
Upper East,Bolgatanga Municipal,-2.1221022921883548,-4.1956119265962135,0.06461992646199886,-1.9252302249359368,-0.1736203349470322,-0.010885524139070738
Upper East,Bongo,14.950648295825376,-1.5518592571404481,8.393339301197518,0.028855331842755124,1.3449151077358867,0.07997811192655753
Upper East,Builsa North Municipal,9.194989637051087,-2.4552213413706263,1.9049709508405497,0.48459254020293174,0.72786514456173,-0.21464125571924486
Upper East,Builsa South,19.222526391610767,0.09775691715061365,6.5430716098520065,0.5666645205387203,1.4777154231709797,-0.23941269676527444
Upper East,Garu,16.97948195594783,-1.2893699765279987,-0.17586667767631586,0.861088196593366,1.0323559938630908,0.47851745339268825
Upper East,Kasena Nankana Municipal,5.513610344140382,-2.752644255338785,2.22736088460346,-0.6344564139440103,0.34396245954151056,-0.14147317815699958
Upper East,Kasena Nankana West,13.308934370918813,-1.9581260043381747,8.129473846864467,0.23636219738912212,1.169183639107984,-0.19197960510803877
Upper East,Nabdam,17.937189279232644,-0.342421655604269,8.687278646279967,0.16985302667741706,1.5432413117310562,0.27654014911213426
Upper East,Pusiga,16.6048307885408,-2.4389437047732696,0.8007812784954452,0.13156684828306967,0.814625188956055,0.437128520597414
Upper East,Talensi,13.629869476276234,-1.0623894603474389,7.5319770978756155,0.8206650541602771,1.3835331861852629,0.2346190721101884
Upper East,Tempane,19.329114823396175,-1.5293036273183895,4.729678061770324,0.44162947736584784,1.1770166852337032,0.471655063828541
Upper West,Daffiama Bussie Issa,15.435154706176636,-0.6046429111739919,-1.9608128222618244,-0.30251969950260077,0.9778913026475491,-0.7618686696981436
Upper West,Jirapa Municipal,17.150842678541466,-2.4909918512279843,7.142403760086022,0.12455162229243019,1.2073243563912173,-0.6505487578531145
Upper West,Lambussie Karni,15.052061068299965,-2.203381709429236,0.9106690416807938,0.27297239175328936,0.8999676828490653,-0.8963904692326592
Upper West,Lawra Municipal,11.647473104000282,-2.3740988345076923,2.1236869875560287,-0.30886644472457025,0.9899926936398661,-1.2413180210587387
Upper West,Nadowli Kaleo,10.584077087596674,-2.001463199974366,2.6971944438336717,-0.1600390868500498,0.9523997323973467,-0.5123856873842713
Upper West,Nandom,9.14725391063168,-2.729733498114359,0.36826564438143683,0.14339613142833113,0.5836941154629108,-0.8887653857808719
Upper West,Sissala East Municipal,9.521454687866079,-2.332566965990319,-2.6274698000772476,-0.6061947761653991,0.7758624559244572,-0.8674829396441998
Upper West,Sissala West,12.974788799593991,-2.3334112742788844,-1.3463159555635773,0.23458562105004055,0.7414459842211534,-0.9893792937731232
Upper West,Wa East,18.556411768738098,0.20420452214913906,-1.8007244236681874,1.9143352921118366,1.115772571363236,-0.6747313409899508
Upper West,Wa Municipal,-2.965924966492367,-4.777501784266305,0.007763598744758969,-1.0345588320422707,-0.37659741831923044,-0.49161242668315536
Upper West,Wa West,21.18841706092198,0.8929646569975255,4.61215933347791,0.4042076123416039,1.6565872572117208,-0.4374877753543666
Volta,Adaklu,0.2661145855241248,-0.022068402492506044,-0.27885054395358627,1.066214462356778,-0.25312649912266943,1.2999246188568552
Volta,Afadzato South,-3.265818745929072,0.4556328549835756,0.07198079245904782,1.2682050462223522,-0.07393549562587073,2.5311507185909035
Volta,Agortime-Ziope,0.19104795829672147,-0.5886560131097975,-1.0915658503900707,0.2486251563926166,-0.3845606753644531,1.1768698977212328
Volta,Akatsi North,7.322675771109107,3.306713642125926,-1.0228960968723009,-0.4804103020100166,-0.5521415936380815,1.1751866861242342
Volta,Akatsi South Municipal,-0.10779001964757456,1.5442740803932942,-0.2326861042797722,-1.2804494017741639,-0.1408053267609486,0.9353004721111332
Volta,Anloga,3.9993330570086614,1.8662008527582439,-0.4789238107658163,-0.5927816554748894,-0.3742668870916054,0.7642321956387007
Volta,Central Tongu,5.477202677407293,-0.013606762475494551,-0.9021370249069384,-0.43157365900120614,-0.6598277878109579,1.3737506743561965
Volta,Ho Municipal,-13.152379394878235,-1.2563408661399202,0.07753780640803219,-2.384739914044136,-0.4112308274080331,1.0275347193920557
Volta,Ho West,-4.1354739844057375,0.680831306155595,-0.3944258938743556,0.320430122033948,-0.2052972554623042,2.029753099031028
Volta,Hohoe Municipal,-8.259476122199215,-0.9874421789860209,-0.368134549126953,-1.3861873758118102,-0.3797133758896672,1.5888514742722513
Volta,Keta Municipal,-1.6360737387161564,0.18269208833612785,0.1660901427788554,-2.098730868860369,-0.3131299852293527,1.2915895830263906
Volta,Ketu North Municipal,3.551248267796332,0.48623112468492974,-1.2936724910434725,-0.9406854702809239,-0.6460261929120266,0.9637369788356626
Volta,Ketu South Municipal,-0.08723593129298912,1.5584452277267995,-0.34143465354702374,-0.05735300945484888,-0.4197740230109795,0.5765570388569754
Volta,Kpando Municipal,-4.179626953004444,-1.9292549006801776,0.010188034354616415,0.3622885024316559,-0.06614415121150032,1.8026554429141302
Volta,North Dayi,-3.3199681625893502,-0.06728965522182405,0.11124292002849577,0.7963544152535882,-0.07434595608268721,2.229693195134315
Volta,North Tongu,4.033921650334317,2.1299607774923692,-0.7769697230363545,0.06254155193094127,-0.33888301157715495,0.9007293283485038
Volta,South Dayi,-2.826096634590448,-0.5505596531788238,0.15129383131494656,0.8732900513871489,-0.18350863088232972,1.934449147690888
Volta,South Tongu,0.7220484606934772,1.5816325222241912,-0.05334755168075256,-0.4117060862313183,-0.2062521442085239,0.7441406217982844
Western,Ahanta West Municipal,-2.1183807306002778,1.7067779935856429,-0.372151833746916,0.4404307941865553,-0.26308262263212534,-0.3642676441186459
Western,Effia Kwesimintsim Municipal,-13.841389137482581,-0.5492072631405203,-0.4063985126787865,-2.1833160569988936,-0.3012830286333501,-0.48585680281841515
Western,Ellembelle,0.5799853823777064,0.9373315910761226,0.11614345461876849,0.8822659552217167,-0.1375064524216897,-0.15012233449549603
Western,Jomoro Municipal,1.3237088485991666,1.5414323548706301,-0.3445677706034813,0.724605257571092,-0.20932348445757828,-0.24246614504871972
Western,Mpohor,0.2587427255311794,2.3602210008709235,-0.3291142513667525,1.4621751867018378,-0.22723829472425963,-0.12504330938409783
Western,Nzema East Municipal,7.247574021381707,3.2505270474929056,-1.121049688965739,0.23756456364301126,-0.4159096441430127,-0.5077538872457019
Western,Prestea/Huni Valley Municipal,-0.626634805515702,2.110435427490671,-0.3414865518141564,1.2557164418147366,-0.23223305934668323,-0.3535058935015272
Western,"Sekondi Takoradi Metropolitan Area (STMA)- Takoradi, Sekondi & Essikado-Ketan",-12.940033946086318,-1.2538708487981396,-0.23657366279581987,-2.221434199938084,-0.28664922358354794,-0.4738609822851974
Western,Shama,-4.393185485461195,0.28923422611680827,-0.5585391325411395,0.5172986769316436,-0.3556853183066497,-0.5840138528901575
Western,Tarkwa-Nsuaem Municipal,-5.5530534951312625,-0.4094571954647455,-0.5590148320262354,0.5160613821133817,-0.38640363023378016,-0.75866923832109
Western,Wassa Amenfi Central,7.407614208411946,3.04582529224568,-1.0751629908758809,1.4121543767530564,-0.5723390494558803,-0.7148654761792894
Western,Wassa Amenfi East Municipal,5.748316214184029,2.7923159192441402,-0.766377127760915,0.6498547295134602,-0.33507502020488217,-0.40232024681307726
Western,Wassa Amenfi West Municipal,-0.17098516952369425,-0.5735194270181067,-1.2090603066545598,0.9860795232171709,-0.21643305976279723,-0.3366071927353812
Western,Wassa East,5.902991988205635,3.1906252031412223,-1.0600504378454234,1.0408394977130946,-0.42978429922380523,-0.31945749631546577
Western North,Aowin Municipal,7.568864679260127,0.22779095328764304,-1.6264890404177008,0.6158441411399188,-0.8456322524831692,-0.7688927468528205
Western North,Bia East,8.872296817108882,1.8804411785045754,-1.542002176425618,1.5542096476969791,-1.0983319157606843,-1.5642862101860997
Western North,Bia West,-11.113204756145823,-0.8532511324903539,-0.3869401078542587,2.3265051836289263,-0.3415119377465225,-0.44365129974768736
Western North,Bibiani Anhwiaso Bekwai Municipal,-8.282523675750536,-0.921626593511965,-0.4275193595315223,1.5131246765165347,-0.1356985271412643,-0.26627341179990754
Western North,Bodi,14.095001689821586,-0.2594218696056051,-2.6451077777237932,-1.0670408951842483,-2.538505944160349,-2.09652007934422
Western North,Juaboso,5.945491290822699,-0.6035252131478842,-2.4823704550348547,-1.0996913380273994,-1.8077520536368035,-1.8578649222276618
Western North,Sefwi Akontombra,7.165030867301672,-1.4241646297368644,-2.1405717777088333,0.06228342469521229,-1.5325589359033356,-1.6309536863717893
Western North,Sefwi Wiawso Municipal,0.8052486745387603,-0.3967115679672075,-0.4380909902313217,0.8429847547631504,-0.11147180614069009,-0.1286104517783087
Western North,Suaman,11.926142568903812,2.483255670059154,-1.898865833466551,-0.4818172902453939,-1.5270471718099652,-1.7917725899599155
